[
    {"city": "Colombo", "province": "Western", "latitude": 6.927079, "longitude": 79.861244, "population": 2323826},
    {"city": "Sri Jayewardenepura Kotte", "province": "Western", "latitude": 6.886824, "longitude": 79.918714, "population": 107925},
    {"city": "Kandy", "province": "Central", "latitude": 7.290572, "longitude": 80.633726, "population": 125400},
    {"city": "Galle", "province": "Southern", "latitude": 6.0461, "longitude": 80.2103, "population": 93134},
    {"city": "Jaffna", "province": "Northern", "latitude": 9.661498, "longitude": 80.025546, "population": 88138},
    {"city": "Negombo", "province": "Western", "latitude": 7.2008, "longitude": 79.8737, "population": 142136},
    {"city": "Moratuwa", "province": "Western", "latitude": 6.7881, "longitude": 79.8917, "population": 168280},
    {"city": "Dehiwala-Mount Lavinia", "province": "Western", "latitude": 6.8301, "longitude": 79.8800, "population": 219827},
    {"city": "Trincomalee", "province": "Eastern", "latitude": 8.5874, "longitude": 81.2152, "population": 99135},
    {"city": "Batticaloa", "province": "Eastern", "latitude": 7.7166, "longitude": 81.6747, "population": 86742},
    {"city": "Anuradhapura", "province": "North Central", "latitude": 8.3114, "longitude": 80.4037, "population": 60943},
    {"city": "Ratnapura", "province": "Sabaragamuwa", "latitude": 6.7056, "longitude": 80.3847, "population": 47832},
    {"city": "Badulla", "province": "Uva", "latitude": 6.9934, "longitude": 81.0549, "population": 42923},
    {"city": "Matara", "province": "Southern", "latitude": 5.9485, "longitude": 80.5353, "population": 68244},
    {"city": "Kurunegala", "province": "North Western", "latitude": 7.4818, "longitude": 80.3609, "population": 30793},
    {"city": "Gampaha", "province": "Western", "latitude": 7.0873, "longitude": 80.0144, "population": 62797},
    {"city": "Nuwara Eliya", "province": "Central", "latitude": 6.9708, "longitude": 80.7829, "population": 25775},
    {"city": "Kalmunai", "province": "Eastern", "latitude": 7.4167, "longitude": 81.8167, "population": 106780},
    {"city": "Vavuniya", "province": "Northern", "latitude": 8.7542, "longitude": 80.4982, "population": 48224},
    {"city": "Puttalam", "province": "North Western", "latitude": 8.0362, "longitude": 79.8283, "population": 45171},
    {"city": "Kalutara", "province": "Western", "latitude": 6.5831, "longitude": 79.9593, "population": 37081},
    {"city": "Polonnaruwa", "province": "North Central", "latitude": 7.9403, "longitude": 81.0188, "population": 13900},
    {"city": "Ampara", "province": "Eastern", "latitude": 7.2978, "longitude": 81.6820, "population": 43651},
    {"city": "Dambulla", "province": "Central", "latitude": 7.8742, "longitude": 80.6511, "population": 26716}
]